[
  {
    "name": "土佐神社",
    "address": "高知県高知市一宮しなね2-16-1",
    "lat": null,
    "lng": null,
    "src": "nominatim",
    "note": "not_found"
  },
  {
    "name": "海津見神社（龍王宮）",
    "address": "高知県高知市浦戸宇城山831",
    "lat": null,
    "lng": null,
    "src": "nominatim",
    "note": "not_found"
  },
  {
    "name": "竹林寺",
    "address": "高知県高知市五台山3577",
    "lat": null,
    "lng": null,
    "src": "nominatim",
    "note": "not_found"
  },
  {
    "name": "若宮八幡宮",
    "address": "高知県高知市長浜6600",
    "lat": null,
    "lng": null,
    "src": "nominatim",
    "note": "not_found"
  },
  {
    "name": "善楽寺",
    "address": "高知県高知市一宮しなね2-23-11",
    "lat": 33.5918813,
    "lng": 133.5777238,
    "src": "nominatim"
  },
  {
    "name": "金剛福寺",
    "address": "高知県土佐清水市足摺岬214-1",
    "lat": null,
    "lng": null,
    "src": "nominatim",
    "note": "not_found"
  },
  {
    "name": "高知八幡宮",
    "address": "高知県高知市はりまや町3-8-11",
    "lat": null,
    "lng": null,
    "src": "nominatim",
    "note": "not_found"
  },
  {
    "name": "土佐国分寺",
    "address": "高知県南国市国分546",
    "lat": null,
    "lng": null,
    "src": "nominatim",
    "note": "not_found"
  },
  {
    "name": "山内神社",
    "address": "高知県高知市鷹匠町2-4-65",
    "lat": null,
    "lng": null,
    "src": "nominatim",
    "note": "not_found"
  },
  {
    "name": "最御崎寺",
    "address": "高知県室戸市室戸岬町4058-1",
    "lat": null,
    "lng": null,
    "src": "nominatim",
    "note": "not_found"
  },
  {
    "name": "高知大神宮",
    "address": "高知県高知市帯屋町2-7-2",
    "lat": null,
    "lng": null,
    "src": "nominatim",
    "note": "not_found"
  },
  {
    "name": "岩本寺",
    "address": "高岡郡四万十町茂串町3-13",
    "lat": null,
    "lng": null,
    "src": "nominatim",
    "note": "not_found"
  },
  {
    "name": "雪蹊寺",
    "address": "高知県高知市長浜857-3",
    "lat": null,
    "lng": null,
    "src": "nominatim",
    "note": "not_found"
  },
  {
    "name": "禅師峰寺",
    "address": "高知県南国市十市3084",
    "lat": null,
    "lng": null,
    "src": "nominatim",
    "note": "not_found"
  },
  {
    "name": "清瀧寺",
    "address": "高知県土佐市高岡町丁568-1",
    "lat": null,
    "lng": null,
    "src": "nominatim",
    "note": "not_found"
  },
  {
    "name": "青龍寺",
    "address": "高知県土佐市宇佐町龍旧寺山601",
    "lat": null,
    "lng": null,
    "src": "nominatim",
    "note": "not_found"
  },
  {
    "name": "大日寺",
    "address": "高知県香南市野市町母代寺476-1",
    "lat": null,
    "lng": null,
    "src": "nominatim",
    "note": "not_found"
  },
  {
    "name": "潮江天満宮",
    "address": "高知県高知市天神町19-20",
    "lat": null,
    "lng": null,
    "src": "nominatim",
    "note": "not_found"
  },
  {
    "name": "延光寺",
    "address": "高知県宿毛市平田町中山390",
    "lat": null,
    "lng": null,
    "src": "nominatim",
    "note": "not_found"
  },
  {
    "name": "津照寺",
    "address": "高知県室戸市室津2652",
    "lat": null,
    "lng": null,
    "src": "nominatim",
    "note": "not_found"
  }
]